{
"type": "FeatureCollection",
"name": "Maryland_Transit_-_MARC_Train_Stations",
"crs": { "type": "name", "properties": { "name": "urn:ogc:def:crs:OGC:1.3:CRS84" } },
"features": [
{ "type": "Feature", "properties": { "FID": 1, "OBJECTID_1": 1, "OBJECTID": 1, "Name": "Edgewood MARC Station", "ADDRESS": "2127 Old Edgewood Road", "CITY": "Edgewood", "STATE": "MD", "ZIP": 21040, "Transit_Mo": "MARC Penn", "Line_Name": "Penn", "Facility_T": "Station", "Avg_Wkdy": 129, "Avg_Wknd": 0 }, "geometry": { "type": "Point", "coordinates": [ -76.292723861553796, 39.415937017208002 ] } },
{ "type": "Feature", "properties": { "FID": 2, "OBJECTID_1": 2, "OBJECTID": 2, "Name": "Martin Airport MARC Station", "ADDRESS": "2710 Eastern Blvd.", "CITY": "Middle River", "STATE": "MD", "ZIP": 21220, "Transit_Mo": "MARC Penn", "Line_Name": "Penn", "Facility_T": "Station", "Avg_Wkdy": 191, "Avg_Wknd": 0 }, "geometry": { "type": "Point", "coordinates": [ -76.4193428210869, 39.338449562144199 ] } },
{ "type": "Feature", "properties": { "FID": 3, "OBJECTID_1": 3, "OBJECTID": 3, "Name": "West Baltimore MARC Station", "ADDRESS": "400 N. Smallwood St.", "CITY": "Baltimore", "STATE": "MD", "ZIP": 21223, "Transit_Mo": "MARC Penn", "Line_Name": "Penn", "Facility_T": "Station", "Avg_Wkdy": 366, "Avg_Wknd": 0 }, "geometry": { "type": "Point", "coordinates": [ -76.653268543477793, 39.293305949132098 ] } },
{ "type": "Feature", "properties": { "FID": 4, "OBJECTID_1": 4, "OBJECTID": 4, "Name": "BWI Airport MARC Station", "ADDRESS": "2 Amtrak Way", "CITY": "Linthicum", "STATE": "MD", "ZIP": 21240, "Transit_Mo": "MARC Penn", "Line_Name": "Penn", "Facility_T": "Station", "Avg_Wkdy": 810, "Avg_Wknd": 0 }, "geometry": { "type": "Point", "coordinates": [ -76.694538795140502, 39.192306701165201 ] } },
{ "type": "Feature", "properties": { "FID": 5, "OBJECTID_1": 5, "OBJECTID": 5, "Name": "Odenton MARC Station", "ADDRESS": "1400 Odenton Road", "CITY": "Odenton", "STATE": "MD", "ZIP": 21113, "Transit_Mo": "MARC Penn", "Line_Name": "Penn", "Facility_T": "Station", "Avg_Wkdy": 1087, "Avg_Wknd": 0 }, "geometry": { "type": "Point", "coordinates": [ -76.7062836997451, 39.087142711111802 ] } },
{ "type": "Feature", "properties": { "FID": 6, "OBJECTID_1": 6, "OBJECTID": 6, "Name": "Perryville MARC Station", "ADDRESS": "650 Broad Street", "CITY": "Perryville", "STATE": "MD", "ZIP": 21903, "Transit_Mo": "MARC Penn", "Line_Name": "Penn", "Facility_T": "Station", "Avg_Wkdy": 85, "Avg_Wknd": 0 }, "geometry": { "type": "Point", "coordinates": [ -76.073746868160399, 39.557981240595197 ] } },
{ "type": "Feature", "properties": { "FID": 7, "OBJECTID_1": 7, "OBJECTID": 7, "Name": "Seabrook MARC Station", "ADDRESS": "6221 Seabrook Rd.", "CITY": "Lanham", "STATE": "MD", "ZIP": 20706, "Transit_Mo": "MARC Penn", "Line_Name": "Penn", "Facility_T": "Station", "Avg_Wkdy": 120, "Avg_Wknd": 0 }, "geometry": { "type": "Point", "coordinates": [ -76.843518935831199, 38.973058871712198 ] } },
{ "type": "Feature", "properties": { "FID": 8, "OBJECTID_1": 8, "OBJECTID": 8, "Name": "Bowie State University MARC Station", "ADDRESS": "13900 Old Jericho Park Rd.", "CITY": "Bowie", "STATE": "MD", "ZIP": 20715, "Transit_Mo": "MARC Penn", "Line_Name": "Penn", "Facility_T": "Station", "Avg_Wkdy": 272, "Avg_Wknd": 0 }, "geometry": { "type": "Point", "coordinates": [ -76.764982462679001, 39.017785777496997 ] } },
{ "type": "Feature", "properties": { "FID": 9, "OBJECTID_1": 9, "OBJECTID": 9, "Name": "Pennsylvania Station MARC Station", "ADDRESS": "1500 N. Charles Street", "CITY": "Baltimore", "STATE": "MD", "ZIP": 21202, "Transit_Mo": "MARC Penn", "Line_Name": "Penn", "Facility_T": "Station", "Avg_Wkdy": 1671, "Avg_Wknd": 0 }, "geometry": { "type": "Point", "coordinates": [ -76.615577706319797, 39.307461550044799 ] } },
{ "type": "Feature", "properties": { "FID": 10, "OBJECTID_1": 10, "OBJECTID": 10, "Name": "Halethorpe MARC Station", "ADDRESS": "5833 Southwestern Blvd.", "CITY": "Baltimore", "STATE": "MD", "ZIP": 21227, "Transit_Mo": "MARC Penn", "Line_Name": "Penn", "Facility_T": "Station", "Avg_Wkdy": 542, "Avg_Wknd": 0 }, "geometry": { "type": "Point", "coordinates": [ -76.691244946081397, 39.2385698394041 ] } },
{ "type": "Feature", "properties": { "FID": 11, "OBJECTID_1": 11, "OBJECTID": 11, "Name": "Aberdeen MARC Station", "ADDRESS": "18 E. Bel Air Avenue", "CITY": "Aberdeen", "STATE": "MD", "ZIP": 21001, "Transit_Mo": "MARC Penn", "Line_Name": "Penn", "Facility_T": "Station", "Avg_Wkdy": 96, "Avg_Wknd": 0 }, "geometry": { "type": "Point", "coordinates": [ -76.163201165238405, 39.508412465748997 ] } },
{ "type": "Feature", "properties": { "FID": 12, "OBJECTID_1": 12, "OBJECTID": 12, "Name": "New Carrollton MARC Station", "ADDRESS": "4300 Garden City Drive", "CITY": "New Carrollton", "STATE": "MD", "ZIP": 20785, "Transit_Mo": "MARC Penn", "Line_Name": "Penn", "Facility_T": "Station", "Avg_Wkdy": 448, "Avg_Wknd": 0 }, "geometry": { "type": "Point", "coordinates": [ -76.872308810606597, 38.948139240561098 ] } },
{ "type": "Feature", "properties": { "FID": 13, "OBJECTID_1": 13, "OBJECTID": 25, "Name": "Union Station MARC Station", "ADDRESS": "50 Massachusetts Ave., NE", "CITY": "Washington", "STATE": "DC", "ZIP": 20002, "Transit_Mo": "MARC Penn", "Line_Name": "Penn", "Facility_T": "Station", "Avg_Wkdy": 4303, "Avg_Wknd": 0 }, "geometry": { "type": "Point", "coordinates": [ -77.006164669933796, 38.897807215019299 ] } },
{ "type": "Feature", "properties": { "FID": 14, "OBJECTID_1": 14, "OBJECTID": 27, "Name": "Jessup MARC Station", "ADDRESS": "8 Old Jessup Rd.", "CITY": "Jessup", "STATE": "MD", "ZIP": 20794, "Transit_Mo": "MARC Camden", "Line_Name": "Camden", "Facility_T": "Station", "Avg_Wkdy": 0, "Avg_Wknd": 0 }, "geometry": { "type": "Point", "coordinates": [ -76.776403689913707, 39.151522304479002 ] } },
{ "type": "Feature", "properties": { "FID": 15, "OBJECTID_1": 15, "OBJECTID": 28, "Name": "Laurel Race Track MARC Station", "ADDRESS": "Laurel Race Track Rd.", "CITY": "Laurel", "STATE": "MD", "ZIP": 20725, "Transit_Mo": "MARC Camden", "Line_Name": "Camden", "Facility_T": "Station", "Avg_Wkdy": 0, "Avg_Wknd": 0 }, "geometry": { "type": "Point", "coordinates": [ -76.834003596761093, 39.105649350973898 ] } },
{ "type": "Feature", "properties": { "FID": 16, "OBJECTID_1": 16, "OBJECTID": 29, "Name": "Laurel MARC Station", "ADDRESS": "22 Main Street", "CITY": "Laurel", "STATE": "MD", "ZIP": 20707, "Transit_Mo": "MARC Camden", "Line_Name": "Camden", "Facility_T": "Station", "Avg_Wkdy": 216, "Avg_Wknd": 0 }, "geometry": { "type": "Point", "coordinates": [ -76.8418121053503, 39.102201990510501 ] } },
{ "type": "Feature", "properties": { "FID": 17, "OBJECTID_1": 17, "OBJECTID": 30, "Name": "Muirkirk MARC Station", "ADDRESS": "7012 Muirkirk Road", "CITY": "Beltsville", "STATE": "MD", "ZIP": 20705, "Transit_Mo": "MARC Camden", "Line_Name": "Camden", "Facility_T": "Station", "Avg_Wkdy": 102, "Avg_Wknd": 0 }, "geometry": { "type": "Point", "coordinates": [ -76.884203957544102, 39.062860976095401 ] } },
{ "type": "Feature", "properties": { "FID": 18, "OBJECTID_1": 18, "OBJECTID": 31, "Name": "Savage MARC Station", "ADDRESS": "9009 Dorsey Run Road", "CITY": "Savage", "STATE": "MD", "ZIP": 20701, "Transit_Mo": "MARC Camden", "Line_Name": "Camden", "Facility_T": "Station", "Avg_Wkdy": 111, "Avg_Wknd": 0 }, "geometry": { "type": "Point", "coordinates": [ -76.796325370153099, 39.122921853214002 ] } },
{ "type": "Feature", "properties": { "FID": 19, "OBJECTID_1": 19, "OBJECTID": 32, "Name": "Riverdale MARC Station", "ADDRESS": "6200 Rhode Island Ave.", "CITY": "Riverdale", "STATE": "MD", "ZIP": 20737, "Transit_Mo": "MARC Camden", "Line_Name": "Camden", "Facility_T": "Station", "Avg_Wkdy": 44, "Avg_Wknd": 0 }, "geometry": { "type": "Point", "coordinates": [ -76.934943793486099, 38.9629960551962 ] } },
{ "type": "Feature", "properties": { "FID": 20, "OBJECTID_1": 20, "OBJECTID": 33, "Name": "Greenbelt MARC Station", "ADDRESS": "5600 Greenbelt Metro Drive", "CITY": "Greenbelt", "STATE": "MD", "ZIP": 20770, "Transit_Mo": "MARC Camden", "Line_Name": "Camden", "Facility_T": "Station", "Avg_Wkdy": 32, "Avg_Wknd": 0 }, "geometry": { "type": "Point", "coordinates": [ -76.912587132651097, 39.009937593064699 ] } },
{ "type": "Feature", "properties": { "FID": 21, "OBJECTID_1": 21, "OBJECTID": 34, "Name": "Dorsey MARC Station", "ADDRESS": "7000 Deerpath Rd.", "CITY": "Dorsey", "STATE": "MD", "ZIP": 21075, "Transit_Mo": "MARC Camden", "Line_Name": "Camden", "Facility_T": "Station", "Avg_Wkdy": 170, "Avg_Wknd": 0 }, "geometry": { "type": "Point", "coordinates": [ -76.745480222913699, 39.180986074828397 ] } },
{ "type": "Feature", "properties": { "FID": 22, "OBJECTID_1": 22, "OBJECTID": 35, "Name": "College Park MARC Station", "ADDRESS": "7202 Bowdoin Ave.", "CITY": "College Park", "STATE": "MD", "ZIP": 20740, "Transit_Mo": "MARC Camden", "Line_Name": "Camden", "Facility_T": "Station", "Avg_Wkdy": 73, "Avg_Wknd": 0 }, "geometry": { "type": "Point", "coordinates": [ -76.928742507484202, 38.9779374623431 ] } },
{ "type": "Feature", "properties": { "FID": 23, "OBJECTID_1": 23, "OBJECTID": 36, "Name": "St. Denis MARC Station", "ADDRESS": "1734 Arlington Ave.", "CITY": "Halethorpe", "STATE": "MD", "ZIP": 21227, "Transit_Mo": "MARC Camden", "Line_Name": "Camden", "Facility_T": "Station", "Avg_Wkdy": 6, "Avg_Wknd": 0 }, "geometry": { "type": "Point", "coordinates": [ -76.703944830799998, 39.224297206818697 ] } },
{ "type": "Feature", "properties": { "FID": 24, "OBJECTID_1": 24, "OBJECTID": 37, "Name": "Camden MARC Station", "ADDRESS": "301 W. Camden St.", "CITY": "Baltimore", "STATE": "MD", "ZIP": 21230, "Transit_Mo": "MARC Camden", "Line_Name": "Camden", "Facility_T": "Station", "Avg_Wkdy": 195, "Avg_Wknd": 0 }, "geometry": { "type": "Point", "coordinates": [ -76.619530885559698, 39.283163596892699 ] } },
{ "type": "Feature", "properties": { "FID": 25, "OBJECTID_1": 25, "OBJECTID": 49, "Name": "Union Station MARC Station", "ADDRESS": "50 Massachusetts Ave., NE", "CITY": "Washington", "STATE": "DC", "ZIP": 20002, "Transit_Mo": "MARC Camden", "Line_Name": "Camden", "Facility_T": "Station", "Avg_Wkdy": 639, "Avg_Wknd": 0 }, "geometry": { "type": "Point", "coordinates": [ -77.006164669933796, 38.897807215019299 ] } },
{ "type": "Feature", "properties": { "FID": 26, "OBJECTID_1": 26, "OBJECTID": 51, "Name": "Duffields MARC Station", "ADDRESS": "5057 Flowing Springs Rd.", "CITY": "Duffields", "STATE": "WV", "ZIP": 25414, "Transit_Mo": "MARC Brunswick", "Line_Name": "Brunswick", "Facility_T": "Station", "Avg_Wkdy": 42, "Avg_Wknd": 0 }, "geometry": { "type": "Point", "coordinates": [ -77.8279151392193, 39.362068964749398 ] } },
{ "type": "Feature", "properties": { "FID": 27, "OBJECTID_1": 27, "OBJECTID": 53, "Name": "Martinsburg MARC Station", "ADDRESS": "226 E. Martin St.", "CITY": "Martinsburg", "STATE": "WV", "ZIP": 25401, "Transit_Mo": "MARC Brunswick", "Line_Name": "Brunswick", "Facility_T": "Station", "Avg_Wkdy": 54, "Avg_Wknd": 0 }, "geometry": { "type": "Point", "coordinates": [ -77.960594965498998, 39.458635962418803 ] } },
{ "type": "Feature", "properties": { "FID": 28, "OBJECTID_1": 28, "OBJECTID": 55, "Name": "Barnesville MARC Station", "ADDRESS": "8 Beallsville Road", "CITY": "Barnesville", "STATE": "MD", "ZIP": 20842, "Transit_Mo": "MARC Brunswick", "Line_Name": "Brunswick", "Facility_T": "Station", "Avg_Wkdy": 33, "Avg_Wknd": 0 }, "geometry": { "type": "Point", "coordinates": [ -77.382626785430006, 39.209788587800297 ] } },
{ "type": "Feature", "properties": { "FID": 29, "OBJECTID_1": 29, "OBJECTID": 56, "Name": "Boyds MARC Station", "ADDRESS": "15031 Clopper Rd.", "CITY": "Boyds", "STATE": "MD", "ZIP": 20841, "Transit_Mo": "MARC Brunswick", "Line_Name": "Brunswick", "Facility_T": "Station", "Avg_Wkdy": 6, "Avg_Wknd": 0 }, "geometry": { "type": "Point", "coordinates": [ -77.314276329945699, 39.184246706622098 ] } },
{ "type": "Feature", "properties": { "FID": 30, "OBJECTID_1": 30, "OBJECTID": 57, "Name": "Brunswick MARC Station", "ADDRESS": "100 South Maple Ave", "CITY": "Brunswick", "STATE": "MD", "ZIP": 21716, "Transit_Mo": "MARC Brunswick", "Line_Name": "Brunswick", "Facility_T": "Station", "Avg_Wkdy": 159, "Avg_Wknd": 0 }, "geometry": { "type": "Point", "coordinates": [ -77.627979272271006, 39.311492331138197 ] } },
{ "type": "Feature", "properties": { "FID": 31, "OBJECTID_1": 31, "OBJECTID": 58, "Name": "Dickerson MARC Station", "ADDRESS": "22211 Mt. Ephraim Rd.", "CITY": "Dickerson", "STATE": "MD", "ZIP": 20842, "Transit_Mo": "MARC Brunswick", "Line_Name": "Brunswick", "Facility_T": "Station", "Avg_Wkdy": 6, "Avg_Wknd": 0 }, "geometry": { "type": "Point", "coordinates": [ -77.422173532083505, 39.219998879924397 ] } },
{ "type": "Feature", "properties": { "FID": 32, "OBJECTID_1": 32, "OBJECTID": 59, "Name": "Gaithersburg MARC Station", "ADDRESS": "5 S. Summit Avenue", "CITY": "Gaithersburg", "STATE": "MD", "ZIP": 20877, "Transit_Mo": "MARC Brunswick", "Line_Name": "Brunswick", "Facility_T": "Station", "Avg_Wkdy": 106, "Avg_Wknd": 0 }, "geometry": { "type": "Point", "coordinates": [ -77.192941223184505, 39.141530199629997 ] } },
{ "type": "Feature", "properties": { "FID": 33, "OBJECTID_1": 33, "OBJECTID": 60, "Name": "Germantown MARC Station", "ADDRESS": "19320 Matney Hill Road", "CITY": "Germantown", "STATE": "MD", "ZIP": 20875, "Transit_Mo": "MARC Brunswick", "Line_Name": "Brunswick", "Facility_T": "Station", "Avg_Wkdy": 227, "Avg_Wknd": 0 }, "geometry": { "type": "Point", "coordinates": [ -77.270624428869198, 39.173325581776197 ] } },
{ "type": "Feature", "properties": { "FID": 34, "OBJECTID_1": 34, "OBJECTID": 61, "Name": "Kensington MARC Station", "ADDRESS": "3701 Howard Ave.", "CITY": "Kensington", "STATE": "MD", "ZIP": 20902, "Transit_Mo": "MARC Brunswick", "Line_Name": "Brunswick", "Facility_T": "Station", "Avg_Wkdy": 80, "Avg_Wknd": 0 }, "geometry": { "type": "Point", "coordinates": [ -77.071753383536105, 39.026876395932803 ] } },
{ "type": "Feature", "properties": { "FID": 35, "OBJECTID_1": 35, "OBJECTID": 62, "Name": "Metro Grove MARC Station", "ADDRESS": "2 Metropolitan Ct.", "CITY": "Gaithersburg", "STATE": "MD", "ZIP": 20885, "Transit_Mo": "MARC Brunswick", "Line_Name": "Brunswick", "Facility_T": "Station", "Avg_Wkdy": 73, "Avg_Wknd": 0 }, "geometry": { "type": "Point", "coordinates": [ -77.226733613656293, 39.149677102123299 ] } },
{ "type": "Feature", "properties": { "FID": 36, "OBJECTID_1": 36, "OBJECTID": 63, "Name": "Point of Rocks MARC Station", "ADDRESS": "4000 Clay St.", "CITY": "Point of Rocks", "STATE": "MD", "ZIP": 21777, "Transit_Mo": "MARC Brunswick", "Line_Name": "Brunswick", "Facility_T": "Station", "Avg_Wkdy": 123, "Avg_Wknd": 0 }, "geometry": { "type": "Point", "coordinates": [ -77.533380655039096, 39.273458209159898 ] } },
{ "type": "Feature", "properties": { "FID": 37, "OBJECTID_1": 37, "OBJECTID": 64, "Name": "Rockville MARC Station", "ADDRESS": "307 Stonestreet Avenue", "CITY": "Rockville", "STATE": "MD", "ZIP": 20850, "Transit_Mo": "MARC Brunswick", "Line_Name": "Brunswick", "Facility_T": "Station", "Avg_Wkdy": 171, "Avg_Wknd": 0 }, "geometry": { "type": "Point", "coordinates": [ -77.146100721464293, 39.0843119205812 ] } },
{ "type": "Feature", "properties": { "FID": 38, "OBJECTID_1": 38, "OBJECTID": 65, "Name": "Silver Spring MARC Station", "ADDRESS": "1170 Bonifant St.", "CITY": "Silver Spring", "STATE": "MD", "ZIP": 20910, "Transit_Mo": "MARC Brunswick", "Line_Name": "Brunswick", "Facility_T": "Station", "Avg_Wkdy": 141, "Avg_Wknd": 0 }, "geometry": { "type": "Point", "coordinates": [ -77.030434297658005, 38.993189041030597 ] } },
{ "type": "Feature", "properties": { "FID": 39, "OBJECTID_1": 39, "OBJECTID": 66, "Name": "Washington Grove MARC Station", "ADDRESS": "100 Railroad St.", "CITY": "Gaithersburg", "STATE": "MD", "ZIP": 20877, "Transit_Mo": "MARC Brunswick", "Line_Name": "Brunswick", "Facility_T": "Station", "Avg_Wkdy": 9, "Avg_Wknd": 0 }, "geometry": { "type": "Point", "coordinates": [ -77.177730634383494, 39.136452381957398 ] } },
{ "type": "Feature", "properties": { "FID": 40, "OBJECTID_1": 40, "OBJECTID": 67, "Name": "Garrett Park MARC Station", "ADDRESS": "11015 Rokeby Ave.", "CITY": "Garrett Park", "STATE": "MD", "ZIP": 20852, "Transit_Mo": "MARC Brunswick", "Line_Name": "Brunswick", "Facility_T": "Station", "Avg_Wkdy": 18, "Avg_Wknd": 0 }, "geometry": { "type": "Point", "coordinates": [ -77.093509631994905, 39.038966871662602 ] } },
{ "type": "Feature", "properties": { "FID": 41, "OBJECTID_1": 41, "OBJECTID": 68, "Name": "Monocacy MARC Station", "ADDRESS": "7800 Genstar Dr.", "CITY": "Frederick", "STATE": "MD", "ZIP": 21703, "Transit_Mo": "MARC Brunswick", "Line_Name": "Brunswick", "Facility_T": "Station", "Avg_Wkdy": 87, "Avg_Wknd": 0 }, "geometry": { "type": "Point", "coordinates": [ -77.394584007750296, 39.381875101562898 ] } },
{ "type": "Feature", "properties": { "FID": 42, "OBJECTID_1": 42, "OBJECTID": 69, "Name": "Frederick MARC Station", "ADDRESS": "100 South East St.", "CITY": "Frederick", "STATE": "MD", "ZIP": 21704, "Transit_Mo": "MARC Brunswick", "Line_Name": "Brunswick", "Facility_T": "Station", "Avg_Wkdy": 50, "Avg_Wknd": 0 }, "geometry": { "type": "Point", "coordinates": [ -77.404975357834303, 39.411484902728297 ] } },
{ "type": "Feature", "properties": { "FID": 43, "OBJECTID_1": 43, "OBJECTID": 85, "Name": "Union Station MARC Station", "ADDRESS": "50 Massachusetts Ave., NE", "CITY": "Washington", "STATE": "DC", "ZIP": 20002, "Transit_Mo": "MARC Brunswick", "Line_Name": "Brunswick", "Facility_T": "Station", "Avg_Wkdy": 867, "Avg_Wknd": 0 }, "geometry": { "type": "Point", "coordinates": [ -77.006173443779105, 38.8978106421511 ] } },
{ "type": "Feature", "properties": { "FID": 44, "OBJECTID_1": 44, "OBJECTID": 86, "Name": "Harpers Ferry MARC Station", "ADDRESS": "120 Potomac St.", "CITY": "Harper's Ferry", "STATE": "WV", "ZIP": 25425, "Transit_Mo": "MARC Brunswick", "Line_Name": "Brunswick", "Facility_T": "Station", "Avg_Wkdy": 17, "Avg_Wknd": 0 }, "geometry": { "type": "Point", "coordinates": [ -77.731165382970403, 39.324649650935001 ] } }
]
}
